Stationsnamn;Stationsnummer;Latitud;Longitud;Aktiv
Abborrberg;157010;65.4833;16.6000;0
Abild;62570;56.9512;12.7909;0
Abisko;188800;68.3557;18.8206;0
Abisko Aut;188790;68.3555;18.8211;0
Abraur;158990;65.9867;18.9236;1
Adak D;158820;65.3830;18.6201;1
Adelsî A;97280;59.3582;17.5244;0
Adolfsfors;92480;59.8000;12.2333;0
Agî;117330;61.5500;17.4666;0
Aktse;178740;67.1498;18.3061;0
AlingsÜs D;72560;57.8898;12.5520;1
Allavaara;180790;67.2594;20.1205;0
Allgunnen;75040;57.0666;15.9681;0
Almagrundet A;99090;59.1547;19.1298;0
Almdalen;134590;63.9967;14.6701;1
Almunge;98560;59.9341;18.0499;1
Alnarp;53640;55.6500;13.0833;0
Alnarp Fruktavdelning;53390;55.6571;13.0923;0
Alstrum;93720;59.4833;13.6000;0
Aluokta;178790;67.3094;18.9011;0
Alvhem;82000;58.0067;12.1454;0
Ambjîrnarp;73250;57.4166;13.2833;0
AmmarnÑs D;156990;65.9621;16.2184;0
Andersviksberg;103220;60.3694;13.8749;1
Aneboda I;74730;57.1166;14.5666;0
Aneby;74510;57.8232;14.8913;0
Ankarvattnet;144650;64.8666;14.2500;0
Ankarvattnet D;144530;64.8779;14.2293;1
Arboga;95230;59.3833;15.8333;0
Arjeplog A;167710;66.0526;17.8434;0
Arjeplog-Myrheden D;158980;65.9799;18.2287;1
Arlanda;97390;59.6600;17.9208;0
Arvidsjaur A;159880;65.5953;19.2682;0
Arvika;92400;59.6658;12.5910;0
Arvika A;92410;59.6747;12.6381;0
Arvingetorp;75280;57.4496;15.0344;0
Aske;97630;59.6166;17.6500;0
Asker D;95100;59.1594;15.4673;1
Askersund;84660;58.8800;14.9000;0
Askeryd;75480;57.8055;14.9925;0
AspeÜ;137220;63.4002;17.4947;1
Asphyttan;94370;59.6112;14.1859;0
Austers D;78480;57.8103;18.6335;1
Avasjî-BorgafjÑll D;145500;64.8366;15.0918;1
Avesta;106070;60.1419;16.1747;0
Axelfors;73270;57.4500;13.1000;0
Backa;105550;60.9230;15.1145;0
Backarna;117710;61.5666;16.3000;0
Backe D;136490;63.8148;16.4058;1
Bakarebo D;63550;56.9029;13.6960;1
BaksjînÑset;132420;63.7062;12.6526;0
Ballastviken;166840;66.4900;16.5346;0
Balsjî D;139570;63.9206;19.0703;1
Baramossa;62220;56.3840;12.9839;1
Barkarby;97260;59.4166;17.8833;0
BarkÜkra;62180;56.2900;12.8463;0
Bastorp;82540;58.9040;12.0380;0
Beateberg;98410;59.6576;18.4206;0
Beddingestrand;53190;55.3606;13.4343;0
Bengtsfors D;92040;59.0459;12.2326;1
Berg;74080;57.1210;14.6931;1
Berga;98610;59.0833;18.1166;0
Bergaholm;97130;59.2291;17.7164;0
Bergfors;189740;68.1500;19.8000;0
BergnÑsudden;158900;65.6666;18.1500;0
Bergsjî;117570;61.9488;17.0669;1
Bergvik;116160;61.2602;16.8350;0
Bersbo;86160;58.2635;16.0417;0
Biellojaure;155950;65.7992;15.7208;0
Billingsfors;82590;58.9884;12.2589;0
BingsgÑrde;62240;56.4000;12.9666;0
BispgÜrden;136010;63.0335;16.5536;0
BispgÜrden;136020;63.0295;16.6232;0
Bjurfors;106080;60.1316;16.1282;0
Bjurholm;139560;63.9329;19.2200;0
BjursÜs-SÜgsbo;105460;60.7746;15.3844;0
BjurÜker;116650;61.8500;16.5833;0
Bjurîklubb;151290;64.4806;21.5787;0
Bjurîklubb A;151280;64.4812;21.5791;0
Bjuv D;62050;56.0958;12.8862;0
BjÑrbolund;62730;56.1833;12.7666;0
BjÑrka-SÑby;85160;58.2662;15.7431;0
BjÑrnum D;63180;56.2907;13.7464;1
Bjîrka;53650;55.7000;13.6333;0
Bjîrkbacken;155920;65.7456;15.5515;0
Bjîrkede;142030;64.0432;12.9414;0
Bjîrkfors;163680;65.9166;23.4666;0
Bjîrkfors;163980;65.9333;23.4666;0
Bjîrkliden;188680;68.3800;18.6800;0
Bjîrkudden;178820;67.3956;18.7156;0
Bjîrkvik;155850;65.4987;15.5589;0
Bjîrkvik D;86500;58.8205;16.4998;1
Bjîrn;107620;60.6333;17.9833;0
BjîrnegÜrden;83640;58.5166;13.0666;0
Bjîrnliden;122020;62.0444;12.3953;0
Bjîrnstorp;53380;55.6254;13.4122;1
Bjîrsarv;126020;62.0310;16.2995;0
Blaiken D;156780;65.2511;16.8570;1
Blaikliden;155710;65.0464;15.7486;0
Blankastrîm;75140;57.2166;15.9166;0
Blattnicksele;157800;65.3371;17.4606;0
Blomskog;92170;59.2891;12.0542;0
Blomskog A;92130;59.2217;12.0780;0
Boarp;62720;56.3333;12.9333;0
Boda;117640;61.5833;17.0000;0
Boden;161940;65.8113;21.6860;0
Bogen;102040;60.0591;12.5558;0
Bogesund;98240;59.4084;18.2314;0
Boksjî;155900;65.6772;15.8245;0
Bollebygd;72400;57.6610;12.5521;0
Bollerup;54300;55.4907;14.0476;1
BollnÑs;116730;61.3500;16.4166;0
Bolmen;63490;56.8145;13.7003;0
Bolmsî;73020;57.0152;13.7280;0
Bomsund;135090;63.1506;15.7568;0
Bondstorp D;73340;57.5892;13.9285;0
Borgholm;66530;56.8833;16.6666;0
Borgunda;83170;58.2880;13.7995;0
Borgvattnet D;135260;63.4248;15.8283;1
Borgviksbruk;92210;59.3534;12.9623;0
BorgÑrdet;105440;60.7344;15.9083;0
BorlÑnge Aut;105280;60.4889;15.4324;0
BorlÑnge D;105310;60.4920;15.4274;1
BorlÑnge Flygplats;105260;60.4294;15.5079;0
BorÜs;72450;57.7611;12.9493;0
Botorp;74710;57.9833;14.7500;0
Bottnen;133410;63.6769;13.3699;1
Boxholm;85620;58.2000;15.0833;0
Boxholm D;85120;58.2048;15.0215;0
Brandstad;53420;55.6833;13.7333;0
BranÑs;113040;61.0665;13.4844;0
Bredbyn D;138270;63.4612;18.0717;1
Brednoret D;140560;63.9290;20.7805;0
Bredshult;76310;57.5249;16.2768;0
Bredviken;91130;59.2184;11.9858;0
BredÜkra D;65170;56.2523;15.2548;1
Bromîlla;64070;56.0642;14.4783;1
Brovallen;106040;60.0991;16.3062;0
Bruksvallarna;122390;62.6421;12.4192;0
Brunnshult;63420;56.7119;13.1626;0
Brunsberg;92370;59.6166;12.9833;0
BrÑmî;127620;62.1299;17.4498;0
BrÑmîn A;127130;62.2207;17.7426;0
BrÑnde;150200;64.3340;20.9608;0
BrÑnna;133400;63.6691;13.5494;0
BrÑnnberg D;161930;65.7938;21.2600;1
BrÑnnbergs fîrsîksgÜrd;161660;65.8000;21.2666;0
BrÑnnforssund;149390;64.6517;19.3708;1
BrÜlanda;82640;58.5666;12.3666;0
Brîsarp D;54410;55.7206;14.1049;1
Buresjîn A;157870;65.5592;17.8600;0
Buttle;78240;57.4034;18.5297;0
BygdeÜ;150040;64.0550;20.8763;0
Bygdsiljum;150630;64.3500;20.5000;0
Bygdsiljum D;150210;64.3681;20.4841;1
Byske;151570;64.9500;21.2166;0
Byske-Vitsjîn D;161700;65.0143;21.2468;0
BÑckaskog;64050;56.0483;14.3384;0
BÑckatorp;94610;59.1333;14.6500;0
BÑckefors;82490;58.8055;12.1581;0
BÑllefors;84620;58.5833;14.1166;0
BÑvertrÑsk;148370;64.6179;18.3387;1
BÜtvik;86170;58.2699;16.0790;0
Bîksholm;75610;57.0833;15.0000;0
Bîlestrand;136610;63.1333;16.1500;0
Bîrringe Kloster;53310;55.5061;13.3293;0
Bîrrum D;86220;58.3521;16.6256;1
Bîrtnan;123450;62.7290;13.9111;0
Bîrtnan A;123460;62.7557;13.8456;0
Charlottenberg;92530;59.8875;12.3039;1
Daglîsen A;94390;59.6616;14.1831;0
Dajkanvik;156740;65.1444;16.3000;0
Dal;134420;63.6970;14.1314;0
Dala-JÑrna D;104320;60.5600;14.3660;1
Dalarî D;98090;59.1342;18.4142;1
Dalen;133620;63.3166;13.0666;0
Dalkarlsjîhyttan;94570;59.9500;14.1333;0
Dalsjîfors;73430;57.7220;13.1238;0
Dalstuga;115040;61.0666;15.7000;0
Danasjî;156850;65.5374;16.5393;0
Danielshammar;85080;58.1333;15.2500;0
Dannemora;107120;60.2026;17.9049;0
Danskebo;85060;58.1060;15.2511;0
Degerfors D;94140;59.1903;14.3891;1
DegernÑs;94160;59.2500;14.4666;0
Degersjî;138110;63.1902;18.0314;0
Dejefors;93370;59.6082;13.4776;0
Delsbo;116480;61.7854;16.5505;0
Delsbo A;116490;61.8271;16.5418;0
DigernÑset D;132370;63.6240;12.9206;1
DikanÑs;156770;65.2337;16.0018;0
DikanÑs SkansnÑs;156790;65.3235;16.0353;0
Dingle;81320;58.5289;11.5724;0
Djurskog;91370;59.6072;11.9321;0
DjursÑtra;84200;58.3286;14.0637;1
DjurÜs D;105330;60.5581;15.1182;0
Djurî;98710;59.3166;18.7333;0
Domnarvet;105640;60.5000;15.4500;0
Drageryd;75120;57.2001;15.9666;0
Dravagen A;123060;62.0943;13.6115;0
DrÑlinge;97590;59.9923;17.5736;0
Dungen;73010;57.0166;13.7333;0
Dunker;96120;59.1469;16.8536;0
Duved;132240;63.3948;12.9416;0
DÜdran;105570;60.9402;15.5474;0
Dîdre;124480;62.7923;14.6870;1
Dînje;116240;61.3950;16.4145;0
Ed D;81550;58.9102;11.7723;1
EdebÑck;103050;60.0666;13.5500;0
Edevik;132590;63.9812;12.8709;1
Edsbyn;115230;61.3784;15.8352;0
Edsbyn A;115220;61.3613;15.7175;0
Edsele;136240;63.4047;16.5500;1
Eftra D;62510;56.8584;12.6475;1
Egernahult;63720;56.6166;13.3833;0
Eggegrund A;107440;60.7304;17.5612;0
Ekeby;85720;58.9333;15.9333;0
Ekefors;64330;56.5546;14.7571;0
Ekerum;66470;56.7849;16.5812;0
Eket;84080;58.1131;14.0760;0
EklÜngen;96140;59.2361;16.7462;0
EkorrtrÑsk;149300;64.5021;19.0514;0
Eksjî;74400;57.6690;14.9832;0
Emmaboda;65640;56.6333;15.5500;0
Emmaboda D;65360;56.5977;15.5347;1
Enkîping;97380;59.6407;17.0697;1
Erikstad;82380;58.6020;12.4447;1
Erikstad ô;85230;58.3833;15.8166;0
Eringsboda D;65260;56.4459;15.3663;1
Eskilstuna;96230;59.3867;16.4647;1
Eskilstuna A;96190;59.3832;16.4549;0
Esrange;181970;67.8911;21.0846;0
Evertsberg;113080;61.1340;13.9663;0
Fagered;72120;57.1978;12.8129;0
Fagerheden;160800;65.3373;20.9026;0
Fagerhult D;75090;57.1107;15.6415;1
Fagersta;105000;60.0023;15.8045;0
Fagerviken;107330;60.5420;17.7478;0
Falerum;86090;58.1425;16.2102;0
Falkenberg;62520;56.8994;12.4798;0
Falkîping;83090;58.1584;13.5397;0
Fallvik D;85090;58.1296;15.8608;0
Falsterbo;52230;55.3836;12.8203;1
Falsterbo A;52240;55.3838;12.8190;0
Falsterbo Skola;76610;57.6500;16.3700;0
Falun-Lugnet;105370;60.6190;15.6603;0
Farsta;98620;59.3165;18.3664;0
Fatmomakke;155740;65.0915;15.1320;0
Fellingsbro-FinnÜker;95320;59.5345;15.5857;0
Femsjî;63540;56.8900;13.3778;0
Filipstad;94430;59.7166;14.1666;0
Films Kyrkby A;107140;60.2363;17.9078;0
Films Kyrkby D;107130;60.2357;17.9072;0
Finnbacka D;115030;61.0566;15.5777;1
Finneby;125020;62.0424;15.4655;0
Finngrundets Fyrskepp;118610;61.0666;18.6833;0
FinspÜng;85430;58.7017;15.7790;1
FiskÜvattnet;144260;64.4367;14.7175;0
Fjugesta D;94110;59.1829;14.8557;0
FjÑlla;73550;57.9166;13.0833;0
FjÑllnÑs;122360;62.5772;12.2223;0
FjÑllsjînÑs;156880;65.6242;16.6077;1
FjÑlltuna D;146250;64.4181;16.4191;0
FjÑrdhundra D;96460;59.7666;16.9166;0
Flahult;74420;57.6898;14.1455;0
FlakatrÑsk;148150;64.2539;18.5184;0
FlatÜn;104360;60.6000;14.4333;0
Flen;96020;59.0502;16.6048;0
Floda A;96040;59.0561;16.3975;0
Flodafors;96600;59.0666;16.3666;0
Flîtningen;112510;61.8408;12.2944;0
FolkÑrna;106100;60.1690;16.3125;0
Forsbacka;106640;60.6166;16.9166;0
Forse;137080;63.1466;17.0262;0
Forserum;74430;57.7038;14.4685;0
Forshult;93580;59.9570;13.5298;0
ForsnÑs;75710;57.8500;15.2166;0
ForsnÑset;136310;63.5215;16.6774;0
Foskros;122010;62.0016;12.6708;0
FotskÑl D;72210;57.4382;12.4135;1
Franshammar;126060;62.1000;16.6700;0
Fredrika;148050;64.0763;18.4190;0
Fredrika A;148040;64.0753;18.3656;0
Fredriksberg;104090;60.1426;14.3951;0
Friggestad;53550;55.9032;13.9336;0
Frostviken D;144220;64.3866;14.3169;1
Frykfors;93320;59.5307;13.2566;0
FrÑmlingshem;106300;60.4993;16.9409;0
FrÑndesta;96010;59.0115;16.8803;1
FrÑnsta;126630;62.5000;16.1833;0
FrÑnsta 11;126300;62.5165;16.2084;0
Frîslida;63530;56.8666;13.0666;0
Frîsîn;134110;63.1974;14.4863;0
Frîsîn D;134130;63.1947;14.4898;0
Frîtuna;97550;59.9077;17.8611;0
Furuîgrund;151550;64.9112;21.2263;0
FÑgerhult;73390;57.6468;13.2369;0
FÑgre D;84390;58.6444;14.0659;1
FÑllfors;160740;65.1317;20.7891;0
FÜgelnÑs;72640;57.7666;12.4166;0
FÜgelsjî D;114480;61.7984;14.6477;1
FÜrî;79580;57.8987;19.1592;0
FÜrîsund;79520;57.8666;19.0500;0
FÜrîsund Ar A;78550;57.9167;18.9568;0
Fîllinge A;134410;63.6770;14.6079;0
Fîllinge-VÑgskÑlet;134460;63.7606;14.4323;0
Fîne D;115500;61.8302;15.8253;1
Fîra;76010;57.0107;16.8816;0
Gammalkroppa;94410;59.6833;14.3166;0
Gammalstorp;64090;56.1118;14.6218;0
GargnÑs D;157790;65.3263;17.9505;1
Garn;82030;58.0492;12.1563;0
Gastsjîn;125580;62.9595;15.8545;0
Gendalen;82110;58.1589;12.6470;1
Genevad;63340;56.5684;13.0338;0
Gesunda D;104540;60.8896;14.5473;1
Getterum;76340;57.5691;16.2849;0
Gielas;155800;65.3272;15.0677;0
Gielas A;155790;65.3280;15.0686;0
Gillastig;63010;56.0147;13.2334;1
Gillinge D;98060;59.1112;18.6545;1
Gislaved;73170;57.2847;13.5324;0
GisselÜs;135640;63.7000;15.3666;0
Gittun;168760;66.3013;18.5504;0
Gladhammar A;76420;57.7071;16.4585;0
Glindran;86510;58.8427;16.4190;1
Glommen;62550;56.9303;12.3579;0
GlommerstrÑsk;159770;65.2780;19.6673;0
Gnarp;127040;62.0647;17.2788;0
Gnesta;97030;59.0950;17.3210;1
GodegÜrd D;85450;58.7564;15.1076;1
Gothem;78340;57.5666;18.7666;0
Gotska Sandîn;89240;58.3928;19.1970;0
Gotska Sandîn A;89230;58.3943;19.1975;0
Gran;127600;62.0166;17.6333;0
Granberget;145710;64.3000;15.9166;0
Granhult D;181740;67.1254;21.7977;0
Graninge;136710;63.0666;16.9500;0
Granshult;75130;57.2036;15.0843;0
Gransjî;147300;64.4947;17.4599;0
GrantrÑsk D;148200;64.3346;18.3756;1
GranÜn;163970;65.9199;23.4267;0
GranÜsen;146010;64.0147;16.8070;0
Granî D;149150;64.2517;19.3127;1
Grebbeshult;72330;57.5413;12.4630;0
Grebbestad;81420;58.6933;11.2485;1
GrecksÜsar;94330;59.5477;14.8136;0
Greningen;135200;63.3271;15.4054;0
Grimeton;72070;57.1481;12.4413;0
GrimsmÜla;64200;56.3260;14.8805;0
Grindsjîn;97050;59.0809;17.8617;0
Grums;93200;59.3499;13.1107;1
Grundforsen;112170;61.2797;12.8568;0
Grundkallen;108300;60.5000;18.8666;0
Grundsjîn;64120;56.1290;14.5860;0
Gruvberget;116050;61.1031;16.1582;0
Grycksbo D;105420;60.6907;15.4910;0
Gryt;85660;58.9000;15.3666;0
Grythyttan;94420;59.7113;14.5301;1
GrÑngesberg;105050;60.0864;15.0202;0
GrÑnna;84610;58.0333;14.4666;0
GrÑsmark;92560;59.9339;12.8992;0
GrÑstorp;82200;58.3355;12.6765;0
GrÑsÜs D;93310;59.5271;13.9389;1
GrÜda Kraftverk;105360;60.6046;15.0146;0
Grînbo;95380;59.6396;15.4180;0
Grînliden;150440;64.7301;20.1927;0
Grîvelsjîn;122610;62.0991;12.3153;0
Gubbhîgen A;145130;64.2182;15.5561;0
GullaboÜs;65630;56.4333;15.8833;0
Gullaskruv;65530;56.8740;15.6841;0
Gullringen;75490;57.8120;15.6662;0
GullspÜng;84590;58.9863;14.1101;0
Gulsele;137490;63.8159;17.1282;0
Gunnarn;147570;65.0099;17.7014;0
Gunnarn A;147560;65.0106;17.7034;0
Gunnebo;76430;57.7166;16.5333;0
Gunnesbyn;81590;58.9765;11.6951;0
Gustavsberg;98180;59.3226;18.3725;0
Gustavsfors;103090;60.1514;13.7975;1
Gustavsfors A;103100;60.1538;13.8019;0
GustavsnÑs D;125490;62.8108;15.9333;0
Gustorp D;86260;58.4223;16.1351;1
GyngamÜla;64220;56.3463;14.8219;0
Gysinge;106170;60.2836;16.8857;0
GÑddede;144300;64.5037;14.1596;0
GÑddede A;144310;64.5057;14.2238;0
GÑllivare;180730;67.1429;20.6586;0
GÑllivare A;180760;67.1421;20.6455;0
GÑllivare Flygplats;180740;67.1358;20.8144;0
GÑllivare-Flakaberg;171850;66.5189;21.9092;0
GÑrdsjî;106720;60.9333;15.2333;0
GÑrsnÑs;54650;55.5500;14.1833;0
GÑvle;107400;60.6537;17.1693;0
GÑvle A;107420;60.7166;17.1641;0
GÑvle-Lexe;107410;60.6812;17.0980;0
GÑvle-èbyggeby;107430;60.7285;17.1132;0
GÜltjÑrn;127480;62.7958;17.5538;0
GÜngarebo;72010;57.0153;12.9160;0
GÜrdsjî A;84520;58.8772;14.3903;0
GÜrdvik;105400;60.7216;15.8119;0
GÜxsjî D;135420;63.6734;15.1041;0
Gîdeberg;74350;57.5666;14.6333;0
Gîrdalen D;112360;61.5951;12.5003;1
GîssÑter;83370;58.6166;13.4666;0
Gîteborg A;71420;57.7157;11.9925;0
Habo;74550;57.9097;14.0833;0
Haby;72280;57.4666;12.6500;0
Hacksta;97350;59.5546;17.0521;0
Haddebo;85550;58.9166;15.3666;0
Hagshults Flygplats;74180;57.2880;14.1297;0
Hakkas;171970;66.9178;21.5757;0
Hallamîlla;54430;55.7082;14.0106;0
Hallands vÑderî;62630;56.4500;12.5500;0
Hallands VÑderî A;62260;56.4495;12.5470;0
Hallen;134120;63.1776;14.0918;0
HallhÜxÜsen A;135460;63.7695;15.3310;0
Hallsberg D;95040;59.0605;15.0848;0
Hallstaberg;96390;59.6545;16.7995;1
Hallviken;135440;63.7300;15.5000;0
Halmstad;62390;56.6750;12.9247;0
Halmstad;62400;56.6737;12.9242;0
Halmstad Flygflottilj;62410;56.6833;12.8333;0
Hammarby-GÑstrike D;106360;60.5648;16.5860;1
Hammarstrand D;136060;63.1003;16.3499;0
Hammenhîg;54310;55.5049;14.1589;0
Hammerdal D;135350;63.5750;15.3685;1
Hamra;114400;61.6577;14.9943;0
Hamra A;114410;61.6606;14.9948;0
Handsjîn D;124290;62.4768;14.8009;1
Hanî A;64020;56.0131;14.8488;0
Haparanda;163950;65.8367;24.1130;0
Haparanda A;163960;65.8249;24.1162;0
Harads D;170670;66.0805;20.9680;1
Haraholmen;161780;65.2391;21.6317;0
Harbo;107080;60.1364;17.2382;0
Harrsele;149010;64.0193;19.5682;0
HarrtrÑsk;180710;67.0333;20.7000;0
Harstena;87150;58.2502;17.0095;0
Harstena A;87140;58.2505;17.0106;0
Hasberget;115710;61.4333;14.8500;0
Hassela D;126070;62.1001;16.7849;0
Hasslarp;62080;56.1333;12.8166;0
HattsjîbÑcken D;138360;63.5918;18.9539;1
Havraryd D;63480;56.7923;13.1384;0
Hedberg;158830;65.4273;18.8136;0
Hede;123250;62.4107;13.5184;0
Hedemora;105160;60.2783;15.9872;0
Heden;81310;58.5185;11.5248;1
Hedesunda;107230;60.4058;17.0221;1
Hedeviken;123340;62.4112;13.6748;0
Hednoret;161650;65.8333;21.5500;0
Hejnum;78420;57.6954;18.6377;1
Hellerî;76570;57.9545;16.6513;1
Helsingborg;62030;56.0431;12.6906;0
Helsingborg 2;62020;56.0261;12.7432;0
Helsingborg A;62040;56.0304;12.7653;0
Hemavan D;155940;65.8224;15.0885;1
Hemling;138400;63.6574;18.5318;0
Hemling A;138390;63.6513;18.5502;0
Hemse;78140;57.2438;18.3835;1
Hemsjî;64210;56.3248;14.7138;0
Hennan D;125030;62.0313;15.9127;1
HenÜn;81140;58.2327;11.6826;0
Herrberga;85210;58.3935;15.2184;0
Herrljunga D;83060;58.0862;13.0485;1
Herrvik D;78250;57.4220;18.9091;0
HerrÜkra;65560;56.9255;15.1688;0
Hestra D;73230;57.4669;13.6319;1
Hid D;73220;57.3658;13.0486;1
Hillersbo;106610;60.0666;16.5833;0
Hillersboda;105390;60.7074;15.9392;1
Hillsand;145090;64.1102;15.3168;1
Hinshult;65580;56.9703;15.8768;1
Hissmofors;134200;63.3329;14.4733;0
Hjo;84180;58.3202;14.3332;1
Hjorted;76370;57.6215;16.3117;0
Hjortkvarn D;85540;58.9313;15.4479;1
Hjulsta;97640;59.5500;17.0166;0
HjÑlmsÑter;83350;58.5829;13.3398;0
HjÑlta Kraftverk;137120;63.1845;17.1039;0
HjÑrnarp;62200;56.3166;12.9166;0
Hoberg;132660;63.8500;12.9833;0
Hoburg A;68560;56.9213;18.1541;0
Hoburg D;68550;56.9220;18.1504;1
Hoby;65150;56.2163;15.0990;0
Hofors;106330;60.5403;16.2920;1
Holma;86200;58.3339;16.8157;0
Holmbo D;86120;58.1944;16.3635;1
Holmfors D;150460;64.7855;20.5185;1
Holmsberg;108620;60.0166;18.3333;0
Holmîgadd A;140360;63.5949;20.7565;0
Holmîgadd A;140360;63.5949;20.7565;0
Holmîn A;140460;63.8082;20.8692;0
Holmîn D;140470;63.7918;20.8606;1
Holsvattnet;161980;65.9666;21.6000;0
Horda;74020;57.0252;14.2936;0
Horn A;75520;57.8863;15.8652;0
Hornkullen;94400;59.6506;14.2849;0
Horrmund;113190;61.3138;13.1615;0
Hoting;146070;64.1236;16.2149;0
Hoting A;146050;64.0885;16.2388;0
Hov;62270;56.4498;12.7033;1
Hudiksvall;117440;61.7167;17.0860;0
Hullsjîn;126330;62.5500;16.7000;0
Hult;75060;57.1000;15.2333;0
Hult;86410;58.6756;16.1346;1
Hunge;125450;62.7540;15.0921;0
Hunge A;125440;62.7512;15.0876;0
Husarî;98290;59.5052;18.8417;0
Huskvarna;74480;57.7865;14.2874;1
Hylletofta;74260;57.4399;14.4729;0
Hyltan;64410;56.6815;14.3358;1
Hyndevad;96200;59.3226;16.4422;1
Hyvlinge;97450;59.7475;17.0682;0
HÑggberget D;123020;62.0310;13.0879;1
HÑggsjîn;132310;63.5158;12.7159;0
HÑggÜrda;72370;57.6149;12.9451;1
HÑljum;127160;62.2622;17.3358;0
HÑlleforsnÑs D;96090;59.1567;16.5092;1
HÑllnÑs-Lund;149160;64.2684;19.6314;0
HÑllsjîn;105720;60.0333;15.1500;0
HÑllum A;83190;58.3221;13.0406;0
HÑrlîv;64580;56.9666;14.6333;0
HÑrnebo;116070;61.1326;16.7458;1
HÑrnî;128370;62.6183;18.0618;0
HÑrnîsand;127380;62.6280;17.9471;0
HÑrsjînÑs;72650;57.7500;12.3500;0
HÑrsnÑs;85180;58.2886;15.2370;0
HÑssleby;75380;57.6167;15.5831;1
HÑssleholm;63080;56.1367;13.7445;0
HÜkafot D;144230;64.3914;14.3913;1
HÜllî;81630;58.3333;11.2166;0
HÜngstad;91520;59.8633;11.9746;0
HÜrsfjÑrden;98040;59.0714;18.1217;0
HÜvelund;81570;58.9460;11.4414;1
HÜvrestrîm;82500;58.8216;12.4127;0
Hîgaryd;63730;56.7166;13.1666;0
Hîgbo;106410;60.6892;16.8193;0
Hîgboda;93350;59.5762;13.0279;1
HîgemÜlen D;84040;58.0563;14.5956;1
Hîgland D;145340;64.5812;15.8792;1
Hîglandsbodarna D;127390;62.6336;17.4146;1
Hîglekardalen;133050;63.0796;13.7529;0
Hîgsjî;95020;59.0297;15.6858;0
Hîgsta;95290;59.3521;15.4802;0
Hîgstena;83610;58.2333;13.7166;0
Hîgsvedjan;126340;62.5535;16.6992;0
HîgsÑter;91660;59.8800;11.9700;0
Hîgsîn;162970;65.8849;22.3961;0
HîksÑter;81530;58.8833;11.8833;0
Hîkîpinge;53630;55.5000;13.0166;0
Hîlick;117370;61.6239;17.4401;0
Hîljes;102540;60.9066;12.5843;1
Hîrby;53500;55.8506;13.6672;0
Hîrby A;53530;55.8633;13.6689;0
Hîrken;104020;60.0290;14.9382;0
Hîrlinge;63620;56.2000;13.6833;0
Idkerberget;105230;60.3758;15.2310;0
Idre D;112520;61.8591;12.7286;1
Idre FjÑll;112540;61.8896;12.8559;0
Idvattnet;147270;64.4542;17.0794;0
Indal D;127340;62.5663;17.1201;0
Ingels;105580;60.9437;15.2473;0
Ingelstad;64450;56.7500;14.9333;0
Invik;138020;63.0255;18.1720;0
Jarhois;173980;66.9534;23.8404;1
Jiltjaur;156860;65.5370;16.9820;0
Jock;172900;66.6561;22.7215;0
Joesjî;154920;65.7306;14.6303;0
Johannisberg;158810;65.3655;18.2074;0
Johannisholm;104660;60.8333;14.1333;0
Jokkmokk;169880;66.6135;19.8316;0
Jonsberg;86300;58.5059;16.8575;0
Jonstorp;62560;56.9310;12.5514;0
Jordberga;53250;55.4114;13.4001;0
Jormlien;143440;64.7306;13.9860;1
Juktfors;157670;65.2666;17.4833;0
Julita;96100;59.1635;16.0553;0
Junsele;136420;63.6845;16.9508;0
Junsele A;136410;63.6849;16.9531;0
JÑckvik;166810;66.3881;16.9763;0
JÑders bruk;95710;59.4000;15.8000;0
JÑrkvissle;126480;62.8166;16.6833;0
JÑrnbergsÜs;103200;60.3239;13.1272;0
JÑrnboÜs D;94380;59.6446;14.8861;0
JÑrnÑsklubb A;139260;63.4359;19.6768;0
JÑrpen;133220;63.3528;13.4578;0
JÑrpliden;102470;60.7798;12.4593;0
JÑrpstrîmmen;133240;63.3915;13.3880;0
JÑrvsî;116430;61.7142;16.1774;0
Jînkîping;74470;57.7666;14.1833;0
Jînkîpings Flygplats;74460;57.7514;14.0733;0
Jîrn D;160710;65.0971;20.1072;1
Kaitum;180010;67.5333;20.1166;0
Kalix;163690;65.8500;23.2000;0
Kalix D;163940;65.8380;23.2026;1
Kalmar;66410;56.7270;16.2944;0
Kalmar;66640;56.6700;16.3500;0
Kalmar D;66430;56.6622;16.2820;1
KalvtrÑsk D;149400;64.6703;19.8082;1
Kangos D;182850;67.4954;22.6647;1
Karats;168910;66.6485;18.7990;0
Karesuando;192830;68.4421;22.4502;0
Karesuando A;192840;68.4432;22.4488;0
Karlsborg;84310;58.5452;14.4945;0
Karlshammar;76090;57.1500;16.4500;0
Karlshamn;64130;56.1813;14.8517;0
Karlskoga;94200;59.3291;14.5538;0
Karlskrona;65100;56.1670;15.5870;0
Karlstad;93250;59.3840;13.4455;0
Karlstad Aut;93230;59.3610;13.4728;0
Karlstad Flygplats;93220;59.4446;13.3374;0
Karlstorp D;75320;57.5137;15.5070;0
Karpalund;64040;56.0500;14.1000;0
Karungi;173710;66.0438;23.9765;1
Kasa D;139200;63.3266;19.0532;0
Kastlîsa;66260;56.4323;16.4213;1
Katrineberg;116720;61.0666;16.3000;0
Katrinefors;83430;58.7166;13.8333;0
Katrineholm D;86590;58.9773;16.1896;0
KatterjÜkk;188820;68.4218;18.1698;1
KatterjÜkk A;188850;68.4217;18.1719;0
Kattuvuoma;189780;68.2833;19.9000;0
Kaunisvaara;183810;67.3612;23.3185;0
KaxÜs-èflo D;133300;63.4935;13.8797;0
Keinovuopio D;191960;68.8663;21.0337;0
KenttÑsaari D;172960;66.8155;22.8944;0
Kerstinbo A;106160;60.2688;16.9770;0
KerÑntîjÑrvi;182890;67.6375;22.9211;1
Kettstaka A;85460;58.7165;15.0300;0
Kilafors D;116150;61.2489;16.5572;1
KilagÜrden;83220;58.3565;13.2537;0
KillebÑckstorp;62230;56.3822;12.7491;0
Killingi;180860;67.5199;20.2736;0
Kilsbergen-Suttarboda A;94190;59.3000;14.8986;0
Kindsboda;73330;57.5559;13.2825;1
Kindsjîn D;102400;60.6591;12.7103;1
Kinnared;73610;57.0333;13.1166;0
Kiruna;180960;67.8500;20.2451;0
Kiruna flygplats;180940;67.8270;20.3387;0
Kisa D;75590;57.9845;15.6349;1
KittelfjÑll;155680;65.2500;15.5000;0
KittelfjÑll D;155770;65.2574;15.5269;1
Klamby;53740;55.6666;13.7333;0
KlimpfjÑll;154720;65.0620;14.7908;0
Klinte D;78220;57.3719;18.2463;0
Klippan;63070;56.1391;13.2516;1
Klippen;157970;65.8976;17.1126;1
Klocka;132190;63.2983;12.5060;0
Kloten;95530;59.8707;15.2544;1
Kloten A;95540;59.8709;15.2553;0
Klutmark;150640;64.7500;20.6333;0
KlÑdesholmen;71660;57.9500;11.5500;0
KlÑggerîd;53330;55.5666;13.5166;0
KlîvertrÑsk D;161900;65.6360;21.4173;1
Klîvsjî;124320;62.5335;14.2028;0
Klîvsjîhîjden A;124300;62.4961;14.1571;0
Knislinge;64150;56.2000;14.1000;0
Knivsta;97440;59.7243;17.8078;0
Knopparp D;53570;55.9299;13.8491;1
KnÑred;63630;56.5216;13.3369;0
KnÑred D;63320;56.5218;13.3364;1
KnÜs;103570;60.9676;13.8985;0
Koberg;82100;58.1666;12.4166;0
Koholma;99650;59.7333;19.0666;0
KolbÑck D;96330;59.5554;16.2875;0
Koler D;160850;65.5040;20.4675;1
Kolleberga;63610;56.0666;13.2666;0
KolmÜrden-Strîmsfors A;86420;58.6894;16.3103;0
Kolsva D;95360;59.5876;15.9153;1
Kompelusvaara;182720;67.0887;22.2265;0
Komperîd;82040;58.0600;12.0109;1
Komstorp;66170;56.2774;16.0197;1
Konga;65300;56.4918;15.1227;0
Kopparberg D;95520;59.8597;15.0479;1
Koppom D;92420;59.7037;12.1510;0
Korpilombolo;173950;66.8500;23.0666;0
Korpilombolo M;173960;66.8542;23.0571;0
Korsberga;75180;57.3048;15.1306;0
KorsselbrÑnna;145280;64.4571;15.5423;0
Korsvattnet A;133500;63.8395;13.5037;0
KorsÜ;106390;60.6380;16.1451;0
Koskats;170840;66.5074;20.2558;0
Krakstad;92110;59.1833;12.4833;0
Kramfors;127560;62.9290;17.7636;1
Kramfors-GistgÜrdsîn;137040;63.0502;17.7658;0
Kristianstad;64030;56.0133;14.2896;0
Kristianstad everîd;54550;55.9245;14.0842;0
Kristineberg;81150;58.2500;11.4500;0
Kristinefors;102240;60.3586;12.9430;0
Kristinehamn;94180;59.3107;14.1019;0
Krogstorp;84070;58.1058;14.0707;0
Krokshult D;76230;57.3853;16.0976;1
Kroksjî;148300;64.5073;17.9934;0
Krokstrîmmen;124710;62.0500;14.9000;0
KroppefjÑll-Granan A;82360;58.6068;12.1999;0
KrÑckelbÑcken;114330;61.5500;14.2000;0
KrÜkemÜla;76280;57.4694;16.6538;1
KrÜngede A;136090;63.1521;16.1733;0
Kubbe;138320;63.5173;18.0691;0
Kuggîren;117420;61.7027;17.5225;0
Kuggîren A;117430;61.7033;17.5250;0
KulbÑcksliden;149610;64.2000;19.5666;0
Kullen;62190;56.3012;12.4540;0
Kumla;95070;59.1248;15.1535;0
Kummavuopio;190970;68.9078;20.8670;0
Kungsberget D;106460;60.7651;16.4679;1
Kusmark D;150530;64.8846;20.8323;1
Kvarnberg D;114270;61.4398;14.8738;0
Kvikkjokk-èrrenjarka;167980;66.8834;18.0226;1
Kvikkjokk-èrrenjarka A;167990;66.8888;18.0234;0
KypÑsjÑrvi D;173760;66.1937;23.2295;1
Kyrkberg;156020;65.2666;16.7666;0
Kyrkerud;92630;59.3833;12.1166;0
KyrkonÑs;74500;57.8222;14.7188;0
KyrktÜsjî D;145150;64.2485;15.8478;1
KÑlarne;126580;62.9628;16.1075;1
KÑllsjî;72140;57.2323;12.7042;0
KÑrna;71510;57.8425;11.8075;0
KÑrnskogen;85650;58.8500;15.2833;0
KÑtkesuando;193730;68.1202;23.3283;1
KÑttbo;104510;60.8460;14.1912;0
KÑvlinge;53480;55.8000;13.1000;0
KÑvsjî D;73200;57.3222;13.9264;1
KÜllered D;72360;57.6095;12.0673;1
KÜrbîle;115590;61.9812;15.3235;0
KÜrsta;98400;59.6575;18.2718;0
Kîlsillre D;125240;62.3986;15.2137;1
Kîping;96310;59.5259;16.0192;0
Kîpinge;53270;55.4575;13.9379;0
Ladnivaara;180780;67.2566;20.2793;0
Laforsen;115570;61.9445;15.5013;0
Laholm D;62300;56.4946;12.9890;1
Lainio;182930;67.7615;22.3518;1
Laisaliden;155930;65.7666;15.1666;0
Laisvallsby;167730;66.1347;17.1748;0
LakatrÑsk A;171790;66.2801;21.1330;0
Landskrona D;52520;55.8659;12.8512;1
Landsort;87450;58.7430;17.8699;1
Landsort A;87440;58.7433;17.8716;0
Landvetter;72410;57.6874;12.2277;0
Landvetter Flygplats;72420;57.6678;12.2963;0
Lanna;83210;58.3476;13.1296;1
Lannavaara;192710;68.0502;21.9814;0
LansjÑrv;172890;66.6575;22.1935;0
LapptrÑsket;171770;66.2283;21.7881;0
Latikberg D;147390;64.6434;17.0866;1
Latnivaara A;180770;67.2564;20.2747;0
Lauker;159900;65.6453;19.8259;0
LaxbÑcken;146380;64.6389;16.4142;1
Laxviken;134470;63.7901;14.6784;0
Ledningsmark;148270;64.4500;18.1333;0
Leipikvattnet;144560;64.9298;14.1592;1
Lejen;104120;60.2000;14.4000;0
Lekeberga;94150;59.2317;14.8769;0
LeknÑs;106110;60.1245;16.5880;0
Leksand;105450;60.7256;15.0167;0
Lekvattnet D;102110;60.1332;12.7707;0
Lenhovda;65590;56.9893;15.2933;0
Lennartsfors;91620;59.3000;11.9333;0
Lernbo;105090;60.1500;15.3166;0
Lesjîfors D;94590;59.9785;14.1799;1
Lessebo;65450;56.7379;15.3495;1
Letafors D;102440;60.7397;12.6989;1
Lida D;96250;59.3658;16.0158;1
Liden D;126390;62.6553;16.8880;0
Lidingî;98220;59.3701;18.1600;0
Lidkîping;83320;58.4835;13.1479;1
Lidsjîberg;145180;64.3013;15.2210;0
LiehittÑjÑ;173780;66.2668;23.4184;0
Lillhamra D;114390;61.6420;14.7998;1
LillhÑrdal;114510;61.8547;14.0921;0
Limmared;73320;57.5415;13.3433;0
Lindesberg D;95350;59.5941;15.2352;0
Lindî;87560;58.9166;17.0333;0
Linhult D;72180;57.2949;12.6906;1
Linkîping D;85250;58.4214;15.7372;1
Linneryd;65390;56.6592;15.1381;0
Lisjî;96420;59.7017;16.0615;0
LisskogsÜsen;103310;60.5007;13.4433;0
Lit;134180;63.3081;14.8517;0
LitsnÑset;134170;63.3089;14.7065;1
Ljungby A;63510;56.8526;13.8822;0
Ljungby D;63500;56.8099;13.9694;1
Ljungbyhed;63050;56.0752;13.2318;0
Ljungdalen;122510;62.8543;12.8070;1
Ljungskile;81130;58.2159;11.9321;0
LjungÜ;126460;62.7594;16.3141;0
LjusbÑck;106090;60.1550;16.8595;0
Ljusdal;116500;61.8333;16.1333;0
Ljusdals-Valsjon;126120;62.1950;16.0367;1
Ljusne Strîmmar;117130;61.2116;17.0852;0
Ljusnedal;122330;62.5493;12.6043;0
LobonÑs D;115320;61.5338;15.3444;1
Lofsdalen;123070;62.1132;13.2841;0
Loftahammar;76540;57.9038;16.6962;0
Lommaryd;74530;57.8887;14.7342;0
Los D;115450;61.7256;15.1783;1
Louisefred;62150;56.2420;12.5778;1
Ludvika;105100;60.1415;15.1759;1
LuleÜ;162880;65.6200;22.1307;0
LuleÜ Flygplats;162860;65.5434;22.1193;0
LuleÜ-BergnÑset;162870;65.5762;22.1090;0
Lummelunda;78440;57.7409;18.4347;0
Lund;53430;55.6930;13.2290;0
Lundsberg;94300;59.4996;14.1635;0
Lundsjîn;134310;63.5195;14.5261;0
Lungsjîbacken;136720;63.4666;16.2666;0
Lungî A;128390;62.6431;18.0929;0
Lurî;83650;58.8000;13.2500;0
Lyckeby;65120;56.2142;15.7130;1
Lycksele;148350;64.5871;18.6587;0
Lycksele A;148330;64.5492;18.7169;0
LyckÜs;97240;59.4000;17.6666;0
Lyngby;53350;55.5833;13.3666;0
Lysekil D;81170;58.2713;11.4321;1
LÑngjum;83130;58.2212;13.0607;0
LÑnnÑs;137110;63.1663;17.6543;0
LÑnshult;64370;56.6083;14.0665;0
LÜngan D;134270;63.4555;14.4859;1
LÜnghult;63350;56.5850;13.4582;0
LÜngshyttan D;106280;60.4612;16.0620;1
LÜngstrîmmen;124050;62.1166;15.0000;0
LÜngtrÑsk D;159760;65.1953;19.2490;1
LÜngvattnet;156730;65.1049;16.6919;0
Lîrudden;127140;62.2314;17.6623;0
Lîten D;112020;61.0255;12.8399;1
Lîttorp D;76080;57.1555;16.9502;1
Lîvberga D;135580;63.9664;15.8533;1
Lîvestad;53400;55.6008;13.8920;0
Lîvlund;158970;65.9075;18.1507;0
LîvnÑs;113210;61.3445;13.3578;0
Lîvsjîn;134450;63.7500;14.7166;0
Lîvsta;107250;60.4086;17.8840;1
LîvÜker;106420;60.6840;16.3513;0
LîvÜnger;151220;64.3636;21.3152;0
Majenfors;63300;56.4969;13.4557;0
Malexander;85040;58.0729;15.2352;0
Malexander A;85050;58.0718;15.2359;0
MalkÑlen D;149230;64.3918;19.6903;1
Malmagen;122370;62.6094;12.1605;1
Malmberget;180750;67.1681;20.6389;1
MalmbÑck D;74360;57.5985;14.5206;1
MalmslÑtt;85240;58.4004;15.5327;0
Malmî;53360;55.5726;13.0776;1
Malmî 2;53370;55.6048;12.9841;0
Malmî A;52350;55.5714;13.0734;0
Malung;103410;60.6717;13.7058;0
Malung A;103420;60.6773;13.7100;0
MalÜ;158750;65.1808;18.7431;0
MalÜ-BrÑnnan A;158740;65.1522;18.5974;0
Marby D;134070;63.1220;14.2939;1
MarbÑck D;63410;56.7001;13.0332;1
Mariedal;62090;56.1443;12.7112;0
Mariedal N;83290;58.4833;13.4000;0
Mariedamm;85520;58.8509;15.1640;0
Mariefred;97170;59.2661;17.2342;1
Marielund;65130;56.2182;15.5331;0
Mariestad;83440;58.7136;13.8230;1
Markaryd;63280;56.4595;13.6191;0
Markusvinsa;172920;66.7265;22.9001;0
Marsliden;155720;65.0251;15.3668;0
Marviken;86330;58.5491;16.8157;0
Mattmar V;133180;63.3054;13.8767;0
Medhamn;93080;59.1333;13.9833;0
Medskogen;122270;62.4430;12.9673;1
Medstugan;132320;63.5269;12.4037;1
Mellansel;138260;63.4333;18.3500;0
MettÑ-Dokkas;181720;67.0676;21.2885;0
Mierkenies;166900;66.6798;16.1137;0
Mierkenis A;166910;66.6815;16.1088;0
Milsbo D;105270;60.4471;15.6284;0
Mitandersfors D;102050;60.0854;12.5198;0
MjuamÜla;65270;56.4405;15.3205;0
Mjîhult;73110;57.1858;13.1854;0
Mjîlby;85710;58.3333;15.1500;0
MjîlkbÑcken;164730;66.1041;14.8503;1
Mjîlkvattnet;133510;63.8500;13.3797;0
Mo;81650;58.7000;11.5500;0
MockfjÑrd D;104300;60.5082;14.9590;1
Moforsen;136220;63.3683;16.9912;0
Moheda D;74000;57.0064;14.5712;1
Molkom;93360;59.6166;13.7500;0
Molla;73570;57.9360;13.0668;0
MollsjînÑs D;72530;57.8638;12.1399;1
Mora;114010;61.0025;14.5874;0
Mora A;104580;60.9607;14.5070;0
MorjÑrv;172720;66.0728;22.7510;0
Morup;62590;56.9824;12.3911;0
MoskojÑrvi;181810;67.3746;21.0787;0
Moskosel-Abmohed D;159950;65.8549;19.4654;0
Mossen;77170;57.2833;17.0042;0
Mossfallet;103610;60.0166;13.9166;0
Motala;85330;58.5539;15.0145;0
Mullhyttan;94090;59.1500;14.6833;0
Mullsjî D;73560;57.9246;13.8806;1
MultrÜ D;137090;63.1681;17.4192;1
Munka-Ljungby;62130;56.2287;12.9834;0
Munkfors;93500;59.8482;13.5415;1
Munktorp D;96300;59.5238;16.2093;0
Munsvattnet;144160;64.2734;14.4510;0
Muodoslompolo;183980;67.9443;23.4441;0
Murjek D;170850;66.4771;20.9263;1
Myckelgensjî;137350;63.5772;17.5898;1
Mykinge;74720;57.9000;14.3166;0
Myrheden;160790;65.2960;20.2096;0
MyskelÜsen D;122200;62.3335;12.6470;1
MÜlilla;75240;57.3964;15.8315;0
MÜlilla A;75250;57.3848;15.8037;0
MÜngsbodarna;113050;61.0804;13.6189;1
MÜrtensboda D;150280;64.4489;20.9446;1
MÜseskÑr;81060;58.0944;11.3348;0
MÜseskÑr A;81050;58.0940;11.3333;0
Mîklinta;106050;60.0849;16.5477;0
Mîlnbacka;93710;59.6333;13.5666;0
Mîlndal;72390;57.6595;12.0368;0
MînsterÜs D;76020;57.0271;16.5057;1
MîrbylÜnga;66320;56.5256;16.3900;0
Mîrkî;73410;57.6881;13.7084;0
Mîrsil;133190;63.3193;13.6488;1
Naggen;126160;62.2790;15.9986;0
Naimakka;191900;68.6779;21.5277;0
Naimakka A;191910;68.6777;21.5274;0
Naisheden;172680;66.5333;22.3666;0
Nattavaara A;170930;66.7529;20.9281;0
Nattavaara By;171920;66.7586;21.0537;0
Nattavaara-VÜrsjî;170940;66.7791;20.5810;0
Nautijaur;169960;66.9044;19.2446;0
Naven A;83420;58.6998;13.1109;0
NedgÜrden;123570;62.9365;13.2534;0
Nianfors;116360;61.6021;16.7726;1
Niannoret;116740;61.6000;16.6000;0
Nidingen;71180;57.3025;11.9038;0
Nidingen A;71190;57.3040;11.9064;0
Nikkaluokta;179950;67.8488;19.0233;0
Nikkaluokta A;179960;67.8542;19.0253;0
Nilivaara;181770;67.2260;21.6072;0
NobynÑs D;74540;57.9110;14.7985;1
Nol;72660;57.9166;12.0666;0
Nolmyra;107060;60.1000;17.1166;0
Noppikoski;114630;61.5000;14.8500;0
Nora D;95300;59.5059;15.0347;1
Nora-ôstanî D;128500;62.8599;18.1795;1
Norberg;105060;60.0652;15.9111;1
NordanbÑck D;139440;63.7424;19.2951;1
NordanÜs;156840;65.4635;16.0904;1
NordanÜs;157020;65.6333;17.7333;0
Norderîn;134090;63.1618;14.3692;0
Nordkoster A;81540;58.8925;11.0062;0
Nordmaling;139340;63.5739;19.4875;0
Nordvik;128510;62.8485;18.0159;0
Noreborg;92710;59.7666;12.3333;0
Norjeby;64110;56.1166;14.6666;0
NornÑs D;113260;61.4306;13.2296;1
Norra BergnÑs;168820;66.3833;18.2333;0
Norra Mîckleby D;66380;56.6332;16.6703;1
Norra Strîî;64080;56.1049;14.0173;1
Norra Vi D;75540;57.8831;15.3286;1
Norra Viggen;102710;60.4833;12.7166;0
Norrby;148550;64.9238;18.2404;1
Norrby S;108040;60.0623;18.7422;1
Norrby SÑteri;87530;58.8907;17.1932;0
NorrbÑck;147430;64.7112;17.7154;0
Norrfors;138470;63.7705;18.9927;0
NorriÜn;171780;66.2500;21.8000;0
Norrkîping;86360;58.6060;16.2127;0
Norrkîping-KungsÑngen;86350;58.5842;16.2383;0
Norrkîping-SMHI;86340;58.5833;16.1500;0
Norrkîping-Sîrby;86370;58.6082;16.1212;0
Norrsundet;107560;60.9297;17.1561;1
NorrtÑlje;98460;59.7506;18.7091;0
NorrtÑlje-VÑsby;98510;59.8524;18.7296;0
Norrveda;98500;59.8298;18.9524;1
NorrÜker D;145260;64.4331;15.5985;0
Norsborg;97140;59.2401;17.7834;0
Norsborg 11;97160;59.2524;17.7989;1
Norsjî;149540;64.9093;19.4746;1
Norsjî A;149560;64.9263;19.3782;0
Notholmen;96180;59.2948;16.0053;0
Nyabyberg;75230;57.3911;15.2737;0
Nyberget;95440;59.7468;14.9925;0
Nybro-SlÑttingebygd D;65440;56.8507;15.9918;1
Nybyholm;97310;59.5296;17.0380;0
Nyckleby;97180;59.3000;17.7166;0
Nyhammar;104180;60.2915;14.9804;1
NyhamnslÑge;62140;56.2451;12.5438;1
Nyhyttan D;105190;60.3217;15.5566;0
Nykîpings Flygplats;86480;58.7833;16.9166;0
Nyland;147630;64.4833;17.3333;0
Nyluspen;146530;64.8788;16.7489;0
NynÑshamn;87570;58.9217;17.9248;1
NÑshulta;96110;59.1952;16.2795;1
NÑssjî;74390;57.6431;14.6895;0
NÑsÜker;136260;63.4188;16.9563;1
NÑvelsjî;74240;57.4397;14.8863;1
NÜs;104270;60.4494;14.4825;0
Ockelbo;106540;60.8982;16.7376;1
Offer;137070;63.1492;17.7617;0
Ogestad;76530;57.8748;16.1689;0
Ohs;64500;56.8371;14.5852;0
Olastorp;64250;56.4188;14.3546;0
Olden D;133420;63.6964;13.6504;1
Oldsjîn;137720;63.3333;17.4833;0
Olofstrîm;64170;56.2773;14.5177;0
Olstorp;75500;57.8333;15.1000;0
Omberg D;84220;58.3564;14.6969;1
Omne D;128570;62.9513;18.3643;0
Omsjî;137320;63.5319;17.1299;0
Onsala D;71230;57.3847;11.9749;1
Ora;108710;60.0200;18.0800;0
Orrbyn;162980;65.9446;22.1160;0
Orrefors D;65500;56.8216;15.7009;1
Orsa D;114070;61.1306;14.6380;1
Osby;63220;56.3742;13.9376;0
Osebol;103240;60.4000;13.2833;0
Oskarshamn;76160;57.2674;16.4149;0
Oskarstrîm;62480;56.7939;12.9731;0
Ovesholm;64000;55.9901;13.9934;0
Oxelby;96730;59.5500;16.2166;0
Oxelîsund;87400;58.6777;17.1223;1
Paharova;172950;66.8107;22.3408;0
Paharova A;172940;66.8107;22.3360;0
Pajala;183760;67.2101;23.3928;0
Pajala A;183750;67.2049;23.3952;0
Parakka;181850;67.4864;21.6687;1
Pardixhyttan;93430;59.7166;13.9166;0
Parkajoki;183920;67.7314;23.4860;0
Parkalompolo;182920;67.7312;22.8275;0
Parkalompolo A;182910;67.7315;22.8266;0
Paulistrîm;75290;57.4711;15.5037;0
Pengfors;139550;63.9333;19.6666;0
Pengsjî;137400;63.6666;17.8000;0
Persberg;94450;59.7494;14.2582;1
PetistrÑsk A;149340;64.5669;19.6983;0
Pite-RînnskÑr A;161710;65.0350;21.5655;0
PiteÜ;161790;65.2636;21.4776;0
Pitsund;161770;65.2300;21.5200;0
PjÑtteryd;64380;56.6199;14.0229;0
Porjus;169980;66.9594;19.8259;0
Porjus2 D;169990;66.9764;19.8443;0
PrÑstkulla;74440;57.7242;14.9860;1
Puoltsa;179940;67.7989;19.8596;0
Puottaure;170760;66.1861;20.2534;1
PÑrup D;53490;55.8096;13.7464;0
PÜlkem;171810;66.3888;21.6098;0
PÜlkem M;171820;66.3855;21.6167;0
Ramsele;136320;63.4914;16.4826;0
Ramsjî;125110;62.1843;15.6508;0
Ramsjîholm;74490;57.8429;14.4317;1
Randijaur;169930;66.7610;19.3166;0
Rankhyttan;105290;60.4833;15.7333;0
Ransaren D;155730;65.1391;15.0472;0
Ransjî;123120;62.1961;13.8743;0
Raukasjî;144550;64.9197;14.5567;0
Rebnisluspen;167820;66.4051;17.3331;0
Reftele D;73080;57.1691;13.6002;1
Regna D;85530;58.8595;15.6973;1
Remningstorp;83280;58.4529;13.6671;1
Rensjîn A;189720;68.0745;19.8392;0
RensjînÑset;132360;63.6000;12.6500;0
Renstad;84210;58.3097;14.7236;0
Resele;137200;63.3279;17.0676;1
Reymersholm;62010;56.0127;12.7218;0
Riddarhyttan;95490;59.8089;15.5391;1
RiksgrÑnsen;188830;68.4284;18.1302;0
Riksten;97110;59.1833;17.9167;0
Rimbo;98440;59.7487;18.3535;0
Rimsbo;116080;61.1333;16.1833;0
Rindî;98250;59.4166;18.3666;0
Ringhals;72150;57.2530;12.1032;0
Rings;78430;57.7166;18.6333;0
Rinkaby;64600;55.9833;14.2666;0
RisbÑck D;145420;64.7067;15.5385;0
Risinge;108110;60.1750;18.2272;1
RisnÑset D;146150;64.2507;16.4967;0
Rissna D;135040;63.0593;15.3441;1
Risungs;78490;57.8166;18.9333;0
Ritsem;177920;67.7261;17.4718;0
Ritsem A;177930;67.7262;17.4711;0
Robertsfors;150110;64.1935;20.8467;0
Roma;78310;57.5069;18.4539;0
Roma Aut;78300;57.4998;18.4639;0
Ronneby-BredÜkra;65160;56.2619;15.2742;0
Rossared D;72300;57.4850;12.1997;1
Rossîn;136560;63.9351;16.3731;1
RotnÑset D;125250;62.4001;15.4417;1
Rundbacken;127430;62.7101;17.1765;0
Rundvik D;139320;63.5422;19.4377;0
Runsa;97340;59.5593;17.8252;0
RuokojÑrvi;173880;66.6127;23.2980;0
Rusksele D;148490;64.8166;18.8886;1
Ryd;64620;56.4500;14.7166;0
Ryholm;84640;58.5819;14.2167;0
RyningsnÑs;75160;57.2666;15.9333;0
RÑfsebo D;64590;56.9857;14.2124;1
RÑmshyttan;105200;60.3333;15.2000;0
RÑtan;124280;62.4845;14.5440;1
RÑttvik;105540;60.8928;15.1087;0
RÜda;103000;59.9911;13.5948;0
RÜforsen;103630;60.4500;13.7666;0
RÜneÜ-Flakaberg;171800;66.3615;21.8470;0
RÜngedala A;73480;57.7848;13.1668;0
RÜnna;83630;58.4500;13.8333;0
RÜnÑs;98470;59.7833;18.3000;0
RÜsele;146260;64.4191;16.8120;0
RîbÑcksdalen;140490;63.8130;20.2398;0
Rîdkallen A;162790;65.3131;22.3753;0
Rîdupp;172840;66.4585;22.7855;1
Rîgle;62110;56.1833;12.8000;0
Rîke;63140;56.2393;13.5278;0
Rînnberga;156830;65.4333;16.7333;0
RînnskÑr;161670;65.0333;21.5666;0
Rîrastrand;81040;58.0582;11.6528;0
RîrbÑcksnÑs;112080;61.1269;12.8226;0
Rîrum;54380;55.6333;14.2666;0
Rîrvik D;74150;57.2377;14.5751;1
RîskÑr;98260;59.4166;18.1666;0
Rîslîv;63710;56.0166;13.7166;0
Rîssjî;138130;63.2203;18.3119;0
Rîsta;134150;63.2443;14.5535;0
Rîstebo;116230;61.3882;16.4295;0
Saarikoski D;191940;68.8050;21.2529;1
Sadiliden;157750;65.1709;17.8199;1
Sadjem D;171990;66.9615;21.2324;1
Saittarova A;182810;67.3376;22.2334;0
Saittarova D;182800;67.3345;22.2433;1
Sala;96550;59.9045;16.6607;1
Sala A;96560;59.9098;16.6875;0
Saltoluokta;178680;67.3833;18.5500;0
Sanda;78270;57.4255;18.2118;1
SandbÑckshult;76000;56.9835;16.2830;0
Sandhammaren;54230;55.3872;14.1947;0
Sandhamn D;98170;59.2899;18.9146;1
Sandhem;73580;57.9657;13.7804;1
SandnÑs;132450;63.7552;12.4316;1
Sandsjîbacka;72340;57.5571;12.0387;0
Sankt Olof;54390;55.6402;14.1273;0
Sanna;138080;63.1316;18.0733;0
Sanne;81380;58.6707;11.8739;0
Sarkavare;170920;66.7373;20.3603;0
Segerstad;66220;56.3689;16.5444;1
Seglehult;63560;56.9371;13.3393;0
Sickelsjî;95200;59.3290;15.8193;0
Sidsjî D;127220;62.3806;17.2855;1
Siksjî;147210;64.3433;17.7866;0
SikÜskÑlen;135380;63.6198;15.0929;0
Siljansfors;104530;60.8846;14.3786;0
Sillre;126470;62.7717;16.7236;0
Silverberg;156800;65.3496;16.1107;0
Silvergruvan;94510;59.8482;14.4790;0
SimeÜ;116340;61.5706;16.3277;1
SimlÜngsdalen;63440;56.7154;13.1247;0
Simonstorp;83050;58.0788;13.3957;0
Simonstorp_î;86470;58.7779;16.1255;0
Simontorp;53340;55.5833;13.5666;0
Simrishamn;54330;55.5449;14.3578;0
Singeshult;63450;56.7429;13.3608;0
Singî;108100;60.1595;18.7436;0
Sjîaryd;64630;56.5166;14.7500;0
Sjîberg;146500;64.8273;16.2655;0
Sjîbo D;53450;55.6405;13.6830;1
SjîgÑrde;87590;58.9752;17.8411;1
Sjîlund;73360;57.6000;13.9333;0
Sjîtofta D;73210;57.3848;13.2974;1
Skagsudde;139110;63.1885;19.0194;0
Skagsudde A;139120;63.1886;19.0202;0
Skallbîle;126220;62.3642;16.9660;0
Skalmodalen;154840;65.4485;14.5157;0
Skalmsjî;137640;63.5166;17.7666;0
Skara;83270;58.4072;13.4407;0
Skara;83620;58.4000;13.4500;0
Skara-Ekeberg;83240;58.4000;13.5500;0
Skara-Stenum;83200;58.3700;13.5200;0
Skara-VÑsterskog;83260;58.3800;13.3300;0
Skattungbyn D;114120;61.1988;14.8680;1
Skaulo;181830;67.4152;21.1195;0
Skedemosse D;66500;56.8070;16.7426;1
Skeen;63460;56.7591;13.6776;0
SkellefteÜ;150450;64.7584;20.9478;0
SkellefteÜ Flygplats;151380;64.6244;21.0717;0
Skeppshult D;73070;57.1215;13.4056;1
Skillingaryd;74270;57.4302;14.1004;1
Skillinge A;54290;55.4889;14.3172;0
Skillingmark;92490;59.8212;11.9991;0
Skinnskatteberg;95500;59.8333;15.6833;0
SkirknÑs;156920;65.7474;16.1978;0
Skirî;75220;57.3666;15.3833;0
Skjîrby;97330;59.5494;17.3699;1
Skogsforsen;72060;57.0944;12.8704;0
Skorped;137710;63.3833;17.8666;0
Skromberga;62000;56.0000;12.9833;0
SkrÜmforsen;94230;59.3785;14.6119;0
Skrîven D;171930;66.7757;21.8444;1
Skultuna;96440;59.7141;16.4362;1
Skurup D;53280;55.4405;13.4796;0
SkÑrblacka;85640;58.5666;15.9000;0
SkÑrkind D;85280;58.4855;16.0020;1
SkÑrvÜngen D;134440;63.7506;14.2938;0
SkÜlan;124390;62.6500;14.1666;0
SkÜnes fagerhult;63230;56.3666;13.4666;0
Skîldinge;96050;59.0578;16.4029;1
Skîllersta;95090;59.1441;15.2775;0
Skîvde;83230;58.3949;13.8436;0
SlagnÑs;158880;65.5970;18.1795;0
SlÑtvik;156930;65.7833;16.0500;0
Smygehuk;53200;55.3376;13.3563;0
SmÜlandsstenar;73100;57.1666;13.4166;0
Smîgen;81220;58.3571;11.2276;0
Snavlunda D;84580;58.9480;14.9056;0
SnîÜby;104310;60.5227;14.4594;0
Solberg;137470;63.7870;17.6517;0
Solberga;71570;57.9525;11.8155;0
SollefteÜ;137100;63.1748;17.2314;1
Sollerîn;104560;60.9380;14.5908;0
Sonnbo;106060;60.1197;16.2838;0
Sorsele;157860;65.5354;17.5225;0
Spannarboda D;95340;59.5801;15.5020;1
Spinkabo;74340;57.5653;14.4693;0
SpÜnsberget;105240;60.3828;15.1418;0
Stabbo;88580;58.9733;18.4493;0
Staffanstorp;53720;55.6500;13.2166;0
Stalon 11;145570;64.9451;15.8364;1
StavsnÑs A;98160;59.2996;18.7047;0
Stegeborg;86270;58.4333;16.6000;0
Stehag;53540;55.8814;13.4424;1
Stenfors;150120;64.1909;20.2977;0
Stenkvista;96210;59.3221;16.5577;0
Stensele;157720;65.0706;17.1536;0
Stenshuvud;54400;55.6646;14.2595;0
Stensjî;136160;63.2669;16.4446;0
Stenstugu FîrsîksgÜrd;78360;57.5979;18.4507;0
StentrÑsk;169020;66.3166;19.8333;0
Stenudden;167860;66.5343;17.6677;0
Stiby;54340;55.5629;14.1910;1
StjÑrnfors;95510;59.8333;15.0166;0
StjÑrnsund;106270;60.4551;16.2662;0
Stockholm;98210;59.3420;18.0575;1
Stockholm-Bromma;97200;59.3537;17.9513;0
Stora BlÜsjîn;144510;64.8176;14.1528;0
Stora hyltan;74620;57.2000;14.2500;0
Stora Karlsî;77180;57.2893;17.9623;0
Stora Segerstad;73090;57.1461;13.5609;0
Stora Sjîfallet A;178860;67.4964;18.2943;0
Stora skedvi;105250;60.4100;15.7422;1
Stora SpÜnsberget A;105220;60.3822;15.1404;0
Stora sundby;96630;59.2666;16.1333;0
Stora sundby-Alberga;96620;59.2666;16.1166;0
Stora uttervik;87510;58.8500;17.5500;0
Stora VÑderî;81350;58.5760;11.0682;0
Storberg;158850;65.5085;18.9505;0
Storberget;171940;66.7714;21.7652;0
Storbron;112230;61.3868;12.8585;1
StorbÑcken;112410;61.6833;12.6000;0
Stordalen-Midlanda D;127320;62.5300;17.4129;1
Storfinnforsen;136360;63.5950;16.1846;1
StorfjÑllet-SÑlen;113610;61.1666;13.1166;0
Storfors D;94320;59.5271;14.2760;0
Storjungfrun;117610;61.1666;17.3333;0
Storliden;149570;64.9500;19.4833;0
Storlien;132620;63.3158;12.1009;0
Storlien-Storvallen;132180;63.2825;12.1222;0
Storlien-Storvallen A;132170;63.2831;12.1246;0
Stormyra;98140;59.2032;18.3308;1
Stornorrfors;140510;63.8500;20.0500;0
Storsjî Kapell;123480;62.8016;13.0731;0
Storîhamn;163920;65.7306;23.0924;0
Storîn;144710;64.6333;14.1166;0
Storîn A;163900;65.6982;23.1005;0
Strand;139710;63.8666;19.9000;0
Strandvallen;74650;57.8500;14.2833;0
StrÑngnÑs;97270;59.4020;17.0605;0
StrÑngnÑs-Vansî;96240;59.3961;16.9398;0
StrÑngstorp;96030;59.0500;16.2166;0
Strîmbacka;116580;61.9572;16.7138;0
Strîmsberg;107240;60.4000;17.5833;0
StrîmsnÑsbruk D;63330;56.5583;13.7372;0
Strîmstad;81560;58.9333;11.2000;0
Strîmsund;135520;63.8548;15.5894;0
Strîmsund-Edet D;135550;63.9157;15.3181;1
Sturefors;85190;58.3159;15.7144;0
Sturup;53300;55.5390;13.3665;0
StÑlldalen;94580;59.9391;14.8910;0
StÜngfallet;94660;59.9500;14.8833;0
StÜngsmÜla D;65370;56.6105;15.1380;1
Stîllet D;103260;60.4110;13.2693;1
Stîmne;92260;59.4360;12.7631;0
Suddesjaur;159970;65.8952;19.0929;0
Suddjavaara;192760;68.2048;22.7609;0
Sudok;170790;66.3006;20.4240;0
Sundby;96410;59.6962;16.6606;0
Sunderbyn;161680;65.7000;21.8500;0
Sundmo;136640;63.5000;16.7000;0
Sundsvall;127240;62.4066;17.2664;0
Sundsvalls Flygplats;127310;62.5246;17.4410;0
Sunne;93650;59.8500;13.1666;0
Sunne A;93520;59.8644;13.1193;0
Surahammar;96430;59.7010;16.2202;0
Sutterhîjden;93640;59.5833;13.9333;0
SuttertjÑrn;93340;59.5956;13.9525;0
Svabensverk;115050;61.0442;15.7921;0
Svalîv;53560;55.9315;13.0545;0
Svanberga A;98490;59.8321;18.6348;0
Svaneholm D;92120;59.1744;12.5010;1
Svanstein;173890;66.6538;23.8640;1
Svappavaara;181890;67.6536;21.0525;1
Svartberget D;167790;66.3239;17.3210;1
Svarteborg;81340;58.5707;11.5572;0
Svartingstorp;66460;56.7860;16.3296;0
Svartsjî;97220;59.3628;17.7220;0
SvartÜ;94070;59.1260;14.5278;0
Sveg;124020;62.0191;14.1904;0
Sveg A;124030;62.0471;14.4100;0
Svensbyn D;92200;59.3252;12.3087;0
Svenska Hîgarna;99270;59.4445;19.5059;1
Svenska hîgarna A;99280;59.4428;19.5058;0
Svinhult D;75450;57.7471;15.3914;1
Sydostbrotten;140200;63.3806;20.0993;0
SÑby;81010;58.0201;11.6015;0
SÑbyholm;52660;55.9000;12.8333;0
SÑffle;92100;59.1412;12.9359;1
SÑlen;113100;61.1691;13.2593;0
SÑnningstjÑrn D;126080;62.1376;16.8676;1
SÑrna D;113410;61.6912;13.1866;1
SÑrvsjî D;123370;62.6309;13.1618;0
SÑter D;105210;60.3438;15.7611;0
SÑtra GÜrd;97320;59.5339;17.8446;1
SÑttra;97250;59.4115;17.4754;0
SÑve;71470;57.7786;11.8824;0
SÑve-SkÜlvisered;71500;57.8305;11.9200;0
SÑvenfors;94530;59.8820;14.5408;0
SÑvsjî;74250;57.3813;14.6579;1
SÜgen D;104150;60.2616;14.1370;1
SÜgmyra;105410;60.7004;15.3263;0
SÜgmyra;105430;60.7200;15.2800;0
SÜtenÑs;82260;58.4358;12.7075;0
SÜtenÑs D;82250;58.4397;12.6928;0
Sîderala D;116170;61.2950;16.9548;1
Sîderarm A;99450;59.7538;19.4089;0
Sîderby-KarlsÑng D;108180;60.2930;18.4507;1
SîderbÑrke D;105040;60.0640;15.5713;1
Sîderhamn;117170;61.3198;17.0967;0
Sîderhamn A;117160;61.2691;17.0983;0
Sîderkîping D;86290;58.5018;16.2834;1
Sîdersel D;138450;63.7470;18.1689;1
SîdertÑlje;97120;59.1820;17.6186;0
Sîdra Lîkarîd;54460;55.7743;14.0913;0
Sîdra Vi D;75430;57.7174;15.7092;1
Sîlje D;92290;59.4846;12.6959;1
Sîlvesborg;64060;56.0573;14.5902;0
Sîraby;74030;57.0345;14.9446;1
Sîrbyn;171720;66.0531;21.7851;1
Sîrbytorp;84490;58.8121;14.6526;1
Sîrskog;105490;60.8210;15.3770;0
SîrÜker;127630;62.5166;17.5166;0
Sîsdala;63030;56.0355;13.6939;0
Sîsjî;125460;62.7667;15.4996;0
Talliden;149470;64.7781;19.3679;1
TalljÑrv D;172780;66.2512;22.3090;1
Tandsbyn D;134000;63.0092;14.7184;1
TandÜdalen;113110;61.1766;13.0164;0
TannÜker;63570;56.9577;13.7741;0
Tavelsjî D;150020;64.0406;20.0758;1
TegeltrÑsk;137560;63.9515;17.9040;0
Telningsberg;104100;60.1829;14.6679;0
Tidaholm;83720;58.1833;13.9666;0
Tidaholm D;83110;58.1806;13.9829;1
Tidan;84630;58.5500;14.0000;0
Tinghalla;73660;57.9666;13.8500;0
Tingsryd-Degerhaga;64320;56.5376;14.9019;0
TjultrÑsk;155990;65.9669;15.9550;0
Tjusta;97650;59.6000;17.6333;0
TjÑderÜsen;114710;61.5666;14.5000;0
TjÑllmo D;85440;58.7417;15.3735;0
TjÑlsbyn;137660;63.8500;17.3833;0
TjÑrnÑs;106310;60.5129;16.4172;0
TjÜmotis D;168970;66.9181;18.5363;0
TolsgÜrden;84530;58.8833;14.4500;0
Tomelilla;53320;55.5533;13.9450;1
Tomta;96480;59.8000;16.5500;0
Tomtabacken A;74300;57.4983;14.4672;0
Toraliden;74140;57.2295;14.7471;0
Tornby;85260;58.4166;15.6166;0
TornetrÑsk;189760;68.2201;19.7123;0
TorpaslÑtt;96720;59.4166;16.2000;0
Torpshammar A;126290;62.4943;16.2774;0
Torrbîle D;139420;63.7076;19.5932;1
Torsby;103080;60.1075;12.9908;0
Torslanda;71430;57.7166;11.7833;0
TorsÜs;65250;56.4112;15.9880;1
Torup;63600;56.9632;13.0712;0
Torup A;63590;56.9496;13.0625;0
TossÜsen;124430;62.6967;14.3927;0
Tosteberga;64010;56.0094;14.4429;0
Tosterî skola;97230;59.4000;17.0333;0
Tovehult;76380;57.6420;16.5682;0
Traneberg;83400;58.6607;13.1507;0
Tranhult;73290;57.4882;13.8585;0
Transtrand D;113060;61.0797;13.3294;0
Tranvik;98270;59.4507;18.5717;1
TranÜs;84020;58.0389;14.9853;0
Trelleborg;53230;55.3810;13.1279;0
Treskog;92540;59.8722;12.6195;0
Trollebo;75620;57.3166;15.3000;0
TrollenÑs;53510;55.8666;13.2500;0
TrollhÑttan;82620;58.3000;12.3166;0
TrollhÑttans Flygplats;82190;58.3141;12.3292;0
Trosa;87540;58.9000;17.5666;0
TrÑngslet;113230;61.3804;13.7273;1
TrÜngmon;144380;64.6315;14.8619;0
Trîkîrna;82160;58.2686;12.6554;0
Tullinge A;97100;59.1789;17.9125;0
Tullus D;134190;63.3085;14.3174;1
Tuna;108610;60.0166;18.0500;0
Tvingelshed;65200;56.3254;15.5793;1
TvÑrforsen;126050;62.0852;16.2272;0
Tyllinge;86610;58.0166;16.0833;0
Tyllinge D;86010;58.0207;16.0824;1
Tynderî;127710;62.4500;17.6166;0
Tyngsjî;104710;60.3000;13.8833;0
Tyresî;98150;59.2500;18.2833;0
Tystberga D;87490;58.8236;17.3318;0
TÑnger D;105500;60.8149;15.7610;1
TÑnnÑs A;122260;62.4502;12.6702;0
TÑnnÑs i;132710;62.4333;12.6833;0
TÑrendî D;182740;67.1661;22.6287;1
TÑrnaby;155910;65.7166;15.2500;0
TÑrnamo;155890;65.6699;15.1297;0
TÑrnsjî D;106120;60.1321;16.9483;0
TÑxan;135430;63.7195;15.8315;0
TÜnga;62120;56.2013;12.7782;1
TÜrrajaur;169830;66.4329;19.6885;0
TÜsan;102460;60.7658;12.8493;1
Tîcksfors D;91330;59.5468;11.8397;1
Tîreboda;84650;58.7166;14.1333;0
Tîrneryd;65140;56.2297;15.0249;0
Tîrntorp;84600;58.9849;14.7890;0
Uddabo;72520;57.8701;12.7074;0
Uddevalla D;81210;58.3703;11.9364;1
Uddheden D;92570;59.9437;12.9134;1
Ugerup;54580;55.9657;14.1168;0
Ulfshyttan;105620;60.3000;15.3833;0
Ullared A;72090;57.1136;12.7758;0
UllÜnger;128590;63.0132;18.1880;0
Ulricehamn;73470;57.8052;13.4083;0
Ulrika;85070;58.1282;15.4353;1
Ulriksfors;135500;63.8345;15.6164;0
Ultuna;97490;59.8139;17.6469;0
UlvhÑll;97210;59.3619;17.0440;0
Ulvoberg;147460;64.7627;17.2165;0
Ulvsjî;114360;61.6022;14.1847;0
Ulvsjîn D;126170;62.2713;16.4328;1
UmeÜ;140500;63.8302;20.2901;0
UmeÜ Flygplats;140480;63.7947;20.2918;0
Umfors;155980;65.9473;15.0362;0
Understen;108170;60.2761;18.9227;0
UndersÜker;133200;63.3269;13.3826;0
Ungsberg;75310;57.5103;15.9190;1
UngskÑr;65020;56.0419;15.8081;0
Untorp;114230;61.3833;14.4166;0
Untra;107270;60.4393;17.3409;0
Uplo;82060;58.1001;12.6568;1
UppgrÑnna;84030;58.0671;14.5322;0
Uppsala;97520;59.8585;17.6252;0
Uppsala Aut;97510;59.8586;17.6253;0
Uppsala Flygplats;97530;59.8953;17.5935;0
Urshult-Kunninge;64290;56.4782;14.8024;0
UrÜsa;64400;56.6833;14.9500;0
Utklippan;55570;55.9500;15.7000;0
Uttersberg;95640;59.7500;15.6666;0
UtvalnÑs;107450;60.7547;17.3574;0
Utî;88570;58.9502;18.2669;0
Vad;84710;58.5666;14.0166;0
Vadstena D;84270;58.4500;14.8918;1
Valla;96000;59.0185;16.3709;0
Vallbo;133100;63.1569;13.0726;1
Vallentuna;98310;59.5190;18.0779;0
Vallsjîn;112070;61.1166;12.8666;0
Valsjîn;144040;64.0645;14.1341;1
Vanneberga;63060;56.0813;13.9189;0
Varberg;72080;57.1084;12.2741;1
VarpnÑs;93240;59.4041;13.2906;0
Vassbo;105630;60.5333;15.5333;0
Vattholma D;107010;60.0289;17.7243;1
Vaxborg;157980;65.9451;17.4821;1
Veddige D;72170;57.2618;12.3228;1
Vedjeîn;145040;64.0630;15.3737;0
Vekafors;73710;57.1000;13.7333;0
Vellinge;53290;55.4714;13.0128;0
Ven;52550;55.9120;12.6823;0
Viberg;93630;59.5333;13.8500;0
Vidsel;160960;65.8801;20.1315;1
Vidsel Mo;160970;65.8769;20.1543;0
Vikarbyn D;105560;60.9189;15.0329;0
Viken;125710;62.3833;15.1666;0
ViksbÑcken;137030;63.0500;17.7500;0
Vilhelmina A;146350;64.5809;16.8421;0
Villands VÜnga;64140;56.1803;14.3782;0
Villingsberg;94170;59.2833;14.7000;0
Vimmerby;75400;57.6687;15.8518;0
Vindel-Bjîrkheden;156940;65.8211;16.7114;0
Vindel-Storsjî;157930;65.7666;17.0500;0
Vindeln-SunnansjînÑs;149120;64.1386;19.7618;0
Vinga A;71380;57.6324;11.6077;0
VingÜker D;95030;59.0199;15.9810;1
Vinliden;147710;64.6333;17.8666;0
Vinslîv D;63040;56.0996;13.9244;0
Vintersjîhîjden;94550;59.9166;14.3500;0
VintjÑrn;106500;60.8321;16.0581;0
Virserum-Rîdmossa;75190;57.2931;15.5695;0
Visby D;78390;57.6477;18.3494;1
Visby Flygplats;78400;57.6614;18.3428;0
Visingsî A;84050;58.0951;14.4086;0
Visingsî D;84060;58.0735;14.3599;0
Viskan;126270;62.4556;16.4291;0
VissefjÑrda;65310;56.5124;15.6235;0
Vissvass;98120;59.2000;18.3666;0
Vitemîlla;54420;55.6995;14.2040;0
Vitsand D;103210;60.3252;13.0065;0
Vittangi;181900;67.6943;21.6335;0
Vittinge;97540;59.9007;17.0263;1
Vomb;53410;55.6616;13.5323;0
Vrena;86520;58.8741;16.6841;0
VrÜ D;63430;56.7361;13.4540;1
Vuoddas;171830;66.4083;21.7789;0
VuoggatjÜlme;166870;66.5759;16.3511;0
Vuonatjviken;167850;66.4934;17.2461;0
VÑckelsÜng;64640;56.6500;14.9166;0
VÑddî;98590;59.9833;18.8166;0
VÑderstad;84190;58.3143;14.9274;0
VÑderîbod;81620;58.5500;11.0333;0
VÑgersjîn;136190;63.3159;16.4038;0
VÑllingberget;136580;63.9710;16.8034;0
VÑllnora D;98570;59.9562;18.3461;1
VÑnersborg;82230;58.3552;12.3616;1
VÑnge;78230;57.4348;18.4860;1
VÑnnÑs D;139540;63.9226;19.8144;1
VÑring;83300;58.5190;13.9805;0
VÑrmlandsnÑs-EkenÑs D;83550;58.8973;13.2384;1
VÑrnamo;74110;57.1833;14.0500;0
VÑrne;75340;57.5388;15.1002;0
VÑsby;107180;60.3000;17.4333;0
VÑse D;93210;59.3675;13.8534;1
VÑstanbÑck D;135120;63.1988;15.4774;0
VÑstansjî D;116530;61.8774;16.5350;0
VÑstantrÑsk;150270;64.4502;20.4055;0
VÑstergarn;78260;57.4333;18.1500;0
VÑsterhaninge;98080;59.1111;18.1094;1
VÑsterlo D;126250;62.4133;16.6573;1
VÑsterlîsa;85270;58.4447;15.3772;0
VÑstermo;96170;59.2748;16.0885;1
VÑsterplana;83340;58.5586;13.3508;0
VÑstertÜsjî D;145210;64.3632;15.7037;0
VÑstervik;76470;57.7213;16.4683;0
VÑsterÜs;96350;59.5977;16.6034;0
VÑsterÜs;96370;59.6166;16.5500;0
VÑsterîvsjî D;135020;63.0421;15.9347;1
VÑstmarkum A;138070;63.1251;18.2555;0
VÑstra Banken;107530;60.8800;17.9300;0
VÑstra Lagnî;98720;59.5333;18.7500;0
VÑstra Ny;85630;58.6500;15.0500;0
VÑstra érnÑs;103550;60.9069;13.3756;0
VÑstvalla;95250;59.4170;15.6145;1
VÑxjî A;64510;56.8464;14.8324;0
VÑxjî D;64520;56.8811;14.8289;0
VÜmhus D;114080;61.1364;14.4200;1
VÜnga D;85350;58.5880;15.8142;1
VÜrgÜrda;82610;58.0166;12.7833;0
VÜrgÜrda D;82020;58.0240;12.8560;1
VÜrgÜrda-HÑgrunga;82010;58.0166;12.8333;0
VÜthultstrîm;73190;57.3166;13.4333;0
Westî;78540;57.8934;18.7624;0
Wiad;97070;59.1116;17.7219;1
YlinenjÑrvi A;173900;66.6235;23.4680;0
Ystad;53260;55.4325;13.8067;1
Ytterberg D;124040;62.0673;14.4944;1
Ytterboda;107370;60.6166;17.4500;0
Ytterhogdal;124110;62.1825;14.9508;0
Ytterrissjî D;147020;64.0302;17.7770;1
Ytterselî D;97290;59.4070;17.2769;1
Yxsjî;147170;64.2833;17.5166;0
Zinkgruvan;85490;58.8063;15.1285;1
élgarÜs D;84470;58.7906;14.3188;1
élghult;75010;57.0142;15.5703;1
élmeshult;75030;57.0519;15.1980;0
élmhult;53520;55.8656;13.8741;0
élvdalen A;114140;61.2542;14.0383;0
élvdalen I;114150;61.2500;14.0833;0
élvdalen II;114160;61.2555;14.0375;0
élvkarleby D;107340;60.5653;17.4632;1
élvsby Skogsskola;161690;65.6833;21.0666;0
élvsbyn A;161910;65.6702;21.0662;0
élvsbyn M;160890;65.6935;20.9858;0
élvsbyn M;161890;65.6800;20.9700;0
éngelholm;62710;56.2500;12.8500;0
éngesÜ;172690;66.7500;22.3000;0
èby;64550;56.9152;14.0141;1
èda;87580;58.9279;17.5358;1
èhus;54720;55.9166;14.2833;0
èkeboda;63020;56.0308;13.9281;0
èkers Styckebruk;97150;59.2511;17.0879;0
èkershus;83540;58.8980;13.2517;0
èkroken D;127570;62.9380;17.2411;1
èlberga;86450;58.7462;16.5557;0
èlloluokta;179740;67.1261;19.4976;0
èlÜsen;134520;63.8683;14.6063;0
èminne D;73060;57.1232;13.9547;1
èmot A;106570;60.9620;16.4311;0
èmotfors Pappersbruk;92460;59.7666;12.3500;0
èmotsbruk;106580;60.9645;16.4631;0
èmÜl;92030;59.0542;12.6969;0
ènge-Parteboda D;125310;62.5257;15.7694;1
ènimskog;82530;58.8746;12.5913;1
èninge;76520;57.8666;16.0500;0
ère;133230;63.4000;13.1000;0
èrjÑng;92230;59.3833;12.1666;0
èrsnÑs;71560;57.9333;11.7833;0
èsaborg;83250;58.4166;13.7666;0
èsarna D;124400;62.6600;14.3556;1
èseda;75100;57.1462;15.3987;0
èsele;147100;64.1590;17.3494;1
èsele A;147090;64.1661;17.3188;0
èsnorrbodarna;127090;62.1492;17.1724;1
èstrilt;62540;56.8956;12.9600;0
èstrÑsk D;149370;64.6139;19.9778;0
ètorp;94050;59.0966;14.3678;1
ètvidaberg;85130;58.2022;16.0060;0
ôdebyn;82650;58.7833;12.1833;0
ôdeshîg D;84140;58.2546;14.6584;1
ôjared;72510;57.8453;12.3838;0
ôje D;103490;60.8087;13.8604;0
ôjebro;85220;58.3833;15.2000;0
ôjebyn;161800;65.3566;21.3890;0
ôkna Lantbruksskola;87550;58.8901;17.1569;0
ôlands Norra Udde;77220;57.3689;17.1008;1
ôlands Norra Udde A;77210;57.3672;17.0986;0
ôlands sîdra grund;66600;56.0699;16.6799;0
ôlands Sîdra Udde;66120;56.1957;16.4010;0
ôlands Sîdra Udde A;66110;56.1977;16.4036;0
ôlvingstorp;66630;56.6166;16.1166;0
ôn;95240;59.4033;15.1946;1
ôraÜtjÑrnarna D;126430;62.7165;16.1775;1
ôrby;72290;57.4833;12.7000;0
ôrebro;95620;59.2448;15.2854;0
ôrebro A;95130;59.2289;15.0455;0
ôrebro D;95160;59.2584;15.2586;1
ôregrund;108640;60.3333;18.4333;0
ôrja;52510;55.8798;12.8705;0
ôrkelljunga;63170;56.2829;13.3002;1
ôrnskîldsvik;138180;63.2963;18.7217;0
ôrnskîldsviks Flygplats;138240;63.4116;18.9973;0
ôrskÑr A;108320;60.5262;18.3766;0
ôrtofta;53470;55.7833;13.2500;0
ôrtrÑsk;149080;64.1337;18.9892;0
ôstanvik D;115100;61.1684;15.2223;1
ôstanÜ;98330;59.5544;18.5766;0
ôsterby;97410;59.6563;17.6469;0
ôsterfÑrnebo;106180;60.3048;16.8050;1
ôstergarn;78630;57.4500;18.9833;0
ôstergarnsholm A;78280;57.4413;18.9871;0
ôsternÑs;99710;59.7166;19.0000;0
ôstersund;134100;63.1736;14.6786;0
ôsterÜker;98300;59.4897;18.2937;0
ôsthammar;108150;60.2600;18.3696;0
ôstmark-LÑmbacken;102190;60.3060;12.6977;0
ôstmark-RÑnnberg;102200;60.3328;12.6775;0
ôstmark-RîjdÜsen;102210;60.3548;12.6491;0
ôstmark-èsarna;102170;60.2788;12.8538;0
ôstra Husby D;86320;58.5373;16.5655;1
ôstra émtervik;93440;59.7406;13.2136;1
ôverkalix-Svartbyn;172790;66.2646;22.8365;0
ôverkalix-Svartbyn A;172770;66.2630;22.8472;0
ôvertorneÜ;173810;66.3862;23.6220;0
ôverum;76590;57.9912;16.3059;0
ôverÑng;133470;63.7788;13.0734;0
ôvre Soppero;191730;68.0916;21.7003;1
ôvre SvartlÜ D;171700;66.0213;21.1727;0
